{
  "dates": [
    {
      "datestring": "Sun Jun 5",
      "datetime": "2022-06-05",
      "gigs": [
        {
          "lat": "-31.9401094",
          "lng": "115.8475816",
          "name": "Vinyl Cafe",
          "artist": 0,
          "artist_url": 0,
          "address": 663,
          "suburb": 0,
          "location_url": 0,
          "location_image_url": 0,
          "start": "9:00AM",
          "date_formatted": "June 5, 2022",
          "date": "2022-06-05"
        },
        {
          "lat": "-32.0059712",
          "lng": "115.8641918",
          "name": "Our Ruby Girl",
          "artist": 0,
          "artist_url": 0,
          "address": 61,
          "suburb": 0,
          "location_url": 0,
          "location_image_url": 0,
          "start": "9:30AM",
          "date_formatted": "June 5, 2022",
          "date": "2022-06-05"
        },
        {
          "lat": "-33.6947974",
          "lng": "115.0288253",
          "name": "Swings & Roundabouts",
          "artist": 0,
          "artist_url": 0,
          "address": 2807,
          "suburb": 0,
          "location_url": 0,
          "location_image_url": 0,
          "start": "12:00PM",
          "date_formatted": "June 5, 2022",
          "date": "2022-06-05"
        },
        {
          "lat": "-32.658464",
          "lng": "115.8790403",
          "name": "Premier Hotel, Pinjarra",
          "artist": 0,
          "artist_url": 0,
          "address": 1,
          "suburb": 0,
          "location_url": 0,
          "location_image_url": 0,
          "start": "12:01PM",
          "date_formatted": "June 5, 2022",
          "date": "2022-06-05"
        },
        {
          "lat": "-31.9096534",
          "lng": "115.795805",
          "name": "3 Sheets on the Lake",
          "artist": 0,
          "artist_url": 0,
          "address": 88,
          "suburb": 0,
          "location_url": 0,
          "location_image_url": 0,
          "start": "12:30PM",
          "date_formatted": "June 5, 2022",
          "date": "2022-06-05"
        },
        {
          "lat": "-32.8487031",
          "lng": "115.9214",
          "name": "Waroona Hotel",
          "artist": 0,
          "artist_url": 0,
          "address": 16,
          "suburb": 0,
          "location_url": 0,
          "location_image_url": 0,
          "start": "12:30PM",
          "date_formatted": "June 5, 2022",
          "date": "2022-06-05"
        },
        {
          "lat": "-32.1296327",
          "lng": "115.8567429",
          "name": "Gate Bar & Bistro",
          "artist": 0,
          "artist_url": 0,
          "address": 816,
          "suburb": 0,
          "location_url": 0,
          "location_image_url": 0,
          "start": "12:30PM",
          "date_formatted": "June 5, 2022",
          "date": "2022-06-05"
        },
        {
          "lat": "-31.8242956",
          "lng": "115.7420988",
          "name": "3Sheets on the Harbour",
          "artist": 0,
          "artist_url": 0,
          "address": 28,
          "suburb": 0,
          "location_url": 0,
          "location_image_url": 0,
          "start": "12:30PM",
          "date_formatted": "June 5, 2022",
          "date": "2022-06-05"
        },
        {
          "lat": "-32.58534998010177",
          "lng": "115.82748949527742",
          "name": "Ravenswood Hotel",
          "artist": 0,
          "artist_url": 0,
          "address": 65,
          "suburb": 0,
          "location_url": 0,
          "location_image_url": 0,
          "start": "12:30PM",
          "date_formatted": "June 5, 2022",
          "date": "2022-06-05"
        },
        {
          "lat": "-31.649582078462597",
          "lng": "115.73495864868165",
          "name": "Ocean View Tavern",
          "artist": 0,
          "artist_url": 0,
          "address": 2310,
          "suburb": 0,
          "location_url": 0,
          "location_image_url": 0,
          "start": "1:00PM",
          "date_formatted": "June 5, 2022",
          "date": "2022-06-05"
        },
        {
          "lat": "-32.206374048667136",
          "lng": "116.01502418518068",
          "name": "Byford & Districts Country Club",
          "artist": 0,
          "artist_url": 0,
          "address": 88,
          "suburb": 0,
          "location_url": 0,
          "location_image_url": 0,
          "start": "1:00PM",
          "date_formatted": "June 5, 2022",
          "date": "2022-06-05"
        },
        {
          "lat": "-31.731260618636238",
          "lng": "115.80476045608522",
          "name": "Ashby Bar & Bistro",
          "artist": 0,
          "artist_url": 0,
          "address": 131,
          "suburb": 0,
          "location_url": 0,
          "location_image_url": 0,
          "start": "1:00PM",
          "date_formatted": "June 5, 2022",
          "date": "2022-06-05"
        },
        {
          "lat": "-31.8664363",
          "lng": "115.9940898",
          "name": "Mandoon Estate",
          "artist": 0,
          "artist_url": 0,
          "address": 10,
          "suburb": 0,
          "location_url": 0,
          "location_image_url": 0,
          "start": "1:00PM",
          "date_formatted": "June 5, 2022",
          "date": "2022-06-05"
        },
        {
          "lat": "-33.0789779",
          "lng": "115.74264449999998",
          "name": "Old Coast Rd Brewery",
          "artist": 0,
          "artist_url": 0,
          "address": 1238,
          "suburb": 0,
          "location_url": 0,
          "location_image_url": 0,
          "start": "1:00PM",
          "date_formatted": "June 5, 2022",
          "date": "2022-06-05"
        },
        {
          "lat": "-31.936298346183914",
          "lng": "115.79245448112488",
          "name": "The Park Floreat",
          "artist": 0,
          "artist_url": 0,
          "address": 0,
          "suburb": 0,
          "location_url": 0,
          "location_image_url": 0,
          "start": "1:00PM",
          "date_formatted": "June 5, 2022",
          "date": "2022-06-05"
        },
        {
          "lat": "-31.0166181",
          "lng": "115.331305",
          "name": "Endeavour Tavern",
          "artist": 0,
          "artist_url": 0,
          "address": 58,
          "suburb": 0,
          "location_url": 0,
          "location_image_url": 0,
          "start": "1:00PM",
          "date_formatted": "June 5, 2022",
          "date": "2022-06-05"
        },
        {
          "lat": "-31.831963",
          "lng": "115.9949149",
          "name": "Black Swan Winery",
          "artist": 0,
          "artist_url": 0,
          "address": 8600,
          "suburb": 0,
          "location_url": 0,
          "location_image_url": 0,
          "start": "1:00PM",
          "date_formatted": "June 5, 2022",
          "date": "2022-06-05"
        },
        {
          "lat": "-32.05299427029998",
          "lng": "115.74271559715272",
          "name": "E Shed Markets",
          "artist": 0,
          "artist_url": 0,
          "address": 0,
          "suburb": 0,
          "location_url": 0,
          "location_image_url": 0,
          "start": "1:00PM",
          "date_formatted": "June 5, 2022",
          "date": "2022-06-05"
        },
        {
          "lat": "-31.5518538",
          "lng": "115.6877692",
          "name": "Yanchep National Park",
          "artist": 0,
          "artist_url": 0,
          "address": 0,
          "suburb": 0,
          "location_url": 0,
          "location_image_url": 0,
          "start": "1:00PM",
          "date_formatted": "June 5, 2022",
          "date": "2022-06-05"
        },
        {
          "lat": "-32.0552211",
          "lng": "115.7441412",
          "name": "Fremantle Worker's Club",
          "artist": 0,
          "artist_url": 0,
          "address": 9,
          "suburb": 0,
          "location_url": 0,
          "location_image_url": 0,
          "start": "1:30PM",
          "date_formatted": "June 5, 2022",
          "date": "2022-06-05"
        },
        {
          "lat": "-33.32629260864267",
          "lng": "115.63838839530946",
          "name": "Prince of Wales",
          "artist": 0,
          "artist_url": 0,
          "address": 41,
          "suburb": 0,
          "location_url": 0,
          "location_image_url": 0,
          "start": "2:00PM",
          "date_formatted": "June 5, 2022",
          "date": "2022-06-05"
        },
        {
          "lat": "-32.5222536",
          "lng": "115.7282382",
          "name": "Bar Therapy",
          "artist": 0,
          "artist_url": 0,
          "address": 3,
          "suburb": 0,
          "location_url": 0,
          "location_image_url": 0,
          "start": "2:00PM",
          "date_formatted": "June 5, 2022",
          "date": "2022-06-05"
        },
        {
          "lat": "-31.9733187",
          "lng": "116.0567874",
          "name": "Kalamunda Performing Arts Centre",
          "artist": 0,
          "artist_url": 0,
          "address": 48,
          "suburb": 0,
          "location_url": 0,
          "location_image_url": 0,
          "start": "2:00PM",
          "date_formatted": "June 5, 2022",
          "date": "2022-06-05"
        },
        {
          "lat": "-31.973092920320045",
          "lng": "115.85229992866518",
          "name": "Windsor Hotel",
          "artist": 0,
          "artist_url": 0,
          "address": 112,
          "suburb": 0,
          "location_url": 0,
          "location_image_url": 0,
          "start": "2:00PM",
          "date_formatted": "June 5, 2022",
          "date": "2022-06-05"
        },
        {
          "lat": "-31.89954368878502",
          "lng": "115.96860051155092",
          "name": "Guildford Hotel",
          "artist": 0,
          "artist_url": 0,
          "address": 159,
          "suburb": 0,
          "location_url": 0,
          "location_image_url": 0,
          "start": "2:00PM",
          "date_formatted": "June 5, 2022",
          "date": "2022-06-05"
        },
        {
          "lat": "-32.546157",
          "lng": "115.7076219",
          "name": "Pipers Inn, Halls Head",
          "artist": 0,
          "artist_url": 0,
          "address": 4,
          "suburb": 0,
          "location_url": 0,
          "location_image_url": 0,
          "start": "2:00PM",
          "date_formatted": "June 5, 2022",
          "date": "2022-06-05"
        },
        {
          "lat": "-32.2887697",
          "lng": "115.7474643",
          "name": "Pipers Inn, Rockingham",
          "artist": 0,
          "artist_url": 0,
          "address": 0,
          "suburb": 0,
          "location_url": 0,
          "location_image_url": 0,
          "start": "2:00PM",
          "date_formatted": "June 5, 2022",
          "date": "2022-06-05"
        },
        {
          "lat": "-31.89757165",
          "lng": "115.97341151787712",
          "name": "Rose & Crown",
          "artist": 0,
          "artist_url": 0,
          "address": 105,
          "suburb": 0,
          "location_url": 0,
          "location_image_url": 0,
          "start": "2:00PM",
          "date_formatted": "June 5, 2022",
          "date": "2022-06-05"
        },
        {
          "lat": "-31.94403055",
          "lng": "115.86636153467049",
          "name": "Brisbane Hotel",
          "artist": 0,
          "artist_url": 0,
          "address": 292,
          "suburb": 0,
          "location_url": 0,
          "location_image_url": 0,
          "start": "2:00PM",
          "date_formatted": "June 5, 2022",
          "date": "2022-06-05"
        },
        {
          "lat": "-31.9519612",
          "lng": "115.85834",
          "name": "Bambamboo",
          "artist": 0,
          "artist_url": 0,
          "address": 25,
          "suburb": 0,
          "location_url": 0,
          "location_image_url": 0,
          "start": "2:00PM",
          "date_formatted": "June 5, 2022",
          "date": "2022-06-05"
        },
        {
          "lat": "-31.8902175",
          "lng": "115.8712715",
          "name": "Alexander Bar & Bistro",
          "artist": 0,
          "artist_url": 0,
          "address": 322,
          "suburb": 0,
          "location_url": 0,
          "location_image_url": 0,
          "start": "2:00PM",
          "date_formatted": "June 5, 2022",
          "date": "2022-06-05"
        },
        {
          "lat": "-31.89012",
          "lng": "116.0031757",
          "name": "Grand Central Hotel",
          "artist": 0,
          "artist_url": 0,
          "address": 36,
          "suburb": 0,
          "location_url": 0,
          "location_image_url": 0,
          "start": "2:00PM",
          "date_formatted": "June 5, 2022",
          "date": "2022-06-05"
        },
        {
          "lat": "-31.93018421296138",
          "lng": "115.89275836944581",
          "name": "Lyrics Bar/Underground",
          "artist": 0,
          "artist_url": 0,
          "address": 22,
          "suburb": 0,
          "location_url": 0,
          "location_image_url": 0,
          "start": "3:00PM",
          "date_formatted": "June 5, 2022",
          "date": "2022-06-05"
        },
        {
          "lat": "-31.87871469472933",
          "lng": "115.89523673057558",
          "name": "Morley/Noranda Recreation Club",
          "artist": 0,
          "artist_url": 0,
          "address": 85,
          "suburb": 0,
          "location_url": 0,
          "location_image_url": 0,
          "start": "3:00PM",
          "date_formatted": "June 5, 2022",
          "date": "2022-06-05"
        },
        {
          "lat": "-33.94995498727949",
          "lng": "115.07387459278108",
          "name": "Settlers Tavern",
          "artist": 0,
          "artist_url": 0,
          "address": 114,
          "suburb": 0,
          "location_url": 0,
          "location_image_url": 0,
          "start": "3:00PM",
          "date_formatted": "June 5, 2022",
          "date": "2022-06-05"
        },
        {
          "lat": "-31.878268275048896",
          "lng": "116.13597035408021",
          "name": "Parkerville Tavern",
          "artist": 0,
          "artist_url": 0,
          "address": 6,
          "suburb": 0,
          "location_url": 0,
          "location_image_url": 0,
          "start": "3:00PM",
          "date_formatted": "June 5, 2022",
          "date": "2022-06-05"
        },
        {
          "lat": "-31.9341631",
          "lng": "115.82116989926325",
          "name": "Lake Monger Bowling Club",
          "artist": 0,
          "artist_url": 0,
          "address": 144,
          "suburb": 0,
          "location_url": 0,
          "location_image_url": 0,
          "start": "3:00PM",
          "date_formatted": "June 5, 2022",
          "date": "2022-06-05"
        },
        {
          "lat": "-31.903565013938323",
          "lng": "116.16583943367004",
          "name": "The Mundaring Hotel",
          "artist": 0,
          "artist_url": 0,
          "address": 0,
          "suburb": 0,
          "location_url": 0,
          "location_image_url": 0,
          "start": "3:00PM",
          "date_formatted": "June 5, 2022",
          "date": "2022-06-05"
        },
        {
          "lat": "-31.7412864",
          "lng": "115.7390599",
          "name": "Pipers Inn Currambine",
          "artist": 0,
          "artist_url": 0,
          "address": 1244,
          "suburb": 0,
          "location_url": 0,
          "location_image_url": 0,
          "start": "3:00PM",
          "date_formatted": "June 5, 2022",
          "date": "2022-06-05"
        },
        {
          "lat": "-31.743560484901124",
          "lng": "115.76750993728639",
          "name": "Sovereign Arms",
          "artist": 0,
          "artist_url": 0,
          "address": 420,
          "suburb": 0,
          "location_url": 0,
          "location_image_url": 0,
          "start": "3:00PM",
          "date_formatted": "June 5, 2022",
          "date": "2022-06-05"
        },
        {
          "lat": "-32.06673777076542",
          "lng": "115.93233168125154",
          "name": "Last Local",
          "artist": 0,
          "artist_url": 0,
          "address": 507,
          "suburb": 0,
          "location_url": 0,
          "location_image_url": 0,
          "start": "3:00PM",
          "date_formatted": "June 5, 2022",
          "date": "2022-06-05"
        },
        {
          "lat": "-31.7839742",
          "lng": "115.7677403",
          "name": "Craigie Tavern",
          "artist": 0,
          "artist_url": 0,
          "address": 111,
          "suburb": 0,
          "location_url": 0,
          "location_image_url": 0,
          "start": "3:00PM",
          "date_formatted": "June 5, 2022",
          "date": "2022-06-05"
        },
        {
          "lat": "-31.87871469472933",
          "lng": "115.89523673057558",
          "name": "Morley/Noranda Recreation Club",
          "artist": 0,
          "artist_url": 0,
          "address": 85,
          "suburb": 0,
          "location_url": 0,
          "location_image_url": 0,
          "start": "3:00PM",
          "date_formatted": "June 5, 2022",
          "date": "2022-06-05"
        },
        {
          "lat": "-32.0557512",
          "lng": "115.747406",
          "name": "Beerpourium",
          "artist": 0,
          "artist_url": 0,
          "address": 13,
          "suburb": 0,
          "location_url": 0,
          "location_image_url": 0,
          "start": "3:00PM",
          "date_formatted": "June 5, 2022",
          "date": "2022-06-05"
        },
        {
          "lat": "-32.0541016",
          "lng": "115.765903",
          "name": "Assembly Yard",
          "artist": 0,
          "artist_url": 0,
          "address": 21,
          "suburb": 0,
          "location_url": 0,
          "location_image_url": 0,
          "start": "3:00PM",
          "date_formatted": "June 5, 2022",
          "date": "2022-06-05"
        },
        {
          "lat": "-31.690517061284133",
          "lng": "115.7026916742325",
          "name": "Boat Ale House",
          "artist": 0,
          "artist_url": 0,
          "address": 0,
          "suburb": 0,
          "location_url": 0,
          "location_image_url": 0,
          "start": "3:00PM",
          "date_formatted": "June 5, 2022",
          "date": "2022-06-05"
        },
        {
          "lat": "-31.6489156",
          "lng": "115.69802630000004",
          "name": "Cornerstone Ale House",
          "artist": 0,
          "artist_url": 0,
          "address": 0,
          "suburb": 0,
          "location_url": 0,
          "location_image_url": 0,
          "start": "3:00PM",
          "date_formatted": "June 5, 2022",
          "date": "2022-06-05"
        },
        {
          "lat": "-31.9944051",
          "lng": "115.7520352",
          "name": "Cottesloe Beach Hotel",
          "artist": 0,
          "artist_url": 0,
          "address": 104,
          "suburb": 0,
          "location_url": 0,
          "location_image_url": 0,
          "start": "3:30PM",
          "date_formatted": "June 5, 2022",
          "date": "2022-06-05"
        },
        {
          "lat": "-33.320774761944975",
          "lng": "115.64980387687685",
          "name": "The Sunset Bar",
          "artist": 0,
          "artist_url": 0,
          "address": 0,
          "suburb": 0,
          "location_url": 0,
          "location_image_url": 0,
          "start": "4:00PM",
          "date_formatted": "June 5, 2022",
          "date": "2022-06-05"
        },
        {
          "lat": "-33.9534853",
          "lng": "115.059757",
          "name": "The River",
          "artist": 0,
          "artist_url": 0,
          "address": 40,
          "suburb": 0,
          "location_url": 0,
          "location_image_url": 0,
          "start": "4:00PM",
          "date_formatted": "June 5, 2022",
          "date": "2022-06-05"
        },
        {
          "lat": "-31.7565498",
          "lng": "115.7312282",
          "name": "Ocean Reef Sea Sports Club",
          "artist": 0,
          "artist_url": 0,
          "address": 420,
          "suburb": 0,
          "location_url": 0,
          "location_image_url": 0,
          "start": "4:00PM",
          "date_formatted": "June 5, 2022",
          "date": "2022-06-05"
        },
        {
          "lat": "-31.67829559999999",
          "lng": "115.69584559999998",
          "name": "Portofinos Restaurant",
          "artist": 0,
          "artist_url": 0,
          "address": 2,
          "suburb": 0,
          "location_url": 0,
          "location_image_url": 0,
          "start": "4:00PM",
          "date_formatted": "June 5, 2022",
          "date": "2022-06-05"
        },
        {
          "lat": "-27.713902270502388",
          "lng": "114.16543185710908",
          "name": "Finlay's",
          "artist": 0,
          "artist_url": 0,
          "address": 13,
          "suburb": 0,
          "location_url": 0,
          "location_image_url": 0,
          "start": "4:00PM",
          "date_formatted": "June 5, 2022",
          "date": "2022-06-05"
        },
        {
          "lat": "-32.0409745",
          "lng": "116.0126586",
          "name": "Austria Club of WA",
          "artist": 0,
          "artist_url": 0,
          "address": 46,
          "suburb": 0,
          "location_url": 0,
          "location_image_url": 0,
          "start": "4:00PM",
          "date_formatted": "June 5, 2022",
          "date": "2022-06-05"
        },
        {
          "lat": "-33.9428331",
          "lng": "115.0751745",
          "name": "Margaret River Brewhouse",
          "artist": 0,
          "artist_url": 0,
          "address": 35,
          "suburb": 0,
          "location_url": 0,
          "location_image_url": 0,
          "start": "4:30PM",
          "date_formatted": "June 5, 2022",
          "date": "2022-06-05"
        },
        {
          "lat": "-31.914284653008707",
          "lng": "115.84330379962923",
          "name": "Pirate Bar",
          "artist": 0,
          "artist_url": 0,
          "address": 25,
          "suburb": 0,
          "location_url": 0,
          "location_image_url": 0,
          "start": "5:00PM",
          "date_formatted": "June 5, 2022",
          "date": "2022-06-05"
        },
        {
          "lat": "-32.0503481",
          "lng": "115.746768",
          "name": "Clancy's Fish Pub Fremantle",
          "artist": 0,
          "artist_url": 0,
          "address": 51,
          "suburb": 0,
          "location_url": 0,
          "location_image_url": 0,
          "start": "5:00PM",
          "date_formatted": "June 5, 2022",
          "date": "2022-06-05"
        },
        {
          "lat": "-35.0271801",
          "lng": "117.8825075",
          "name": "Six Degrees, Albany",
          "artist": 0,
          "artist_url": 0,
          "address": 70,
          "suburb": 0,
          "location_url": 0,
          "location_image_url": 0,
          "start": "5:00PM",
          "date_formatted": "June 5, 2022",
          "date": "2022-06-05"
        },
        {
          "lat": "-32.057431696279664",
          "lng": "115.74765622615816",
          "name": "Market Bar",
          "artist": 0,
          "artist_url": 0,
          "address": 3,
          "suburb": 0,
          "location_url": 0,
          "location_image_url": 0,
          "start": "5:00PM",
          "date_formatted": "June 5, 2022",
          "date": "2022-06-05"
        },
        {
          "lat": "-32.5103361",
          "lng": "115.7378703",
          "name": "Murphy's Irish Pub",
          "artist": 0,
          "artist_url": 0,
          "address": 43,
          "suburb": 0,
          "location_url": 0,
          "location_image_url": 0,
          "start": "5:30PM",
          "date_formatted": "June 5, 2022",
          "date": "2022-06-05"
        },
        {
          "lat": "-31.900302",
          "lng": "115.7600347",
          "name": "Indian Ocean Hotel",
          "artist": 0,
          "artist_url": 0,
          "address": 23,
          "suburb": 0,
          "location_url": 0,
          "location_image_url": 0,
          "start": "5:30PM",
          "date_formatted": "June 5, 2022",
          "date": "2022-06-05"
        },
        {
          "lat": "-31.894634063856902",
          "lng": "115.75654506683351",
          "name": "Sandbar",
          "artist": 0,
          "artist_url": 0,
          "address": 1,
          "suburb": 0,
          "location_url": 0,
          "location_image_url": 0,
          "start": "5:30PM",
          "date_formatted": "June 5, 2022",
          "date": "2022-06-05"
        },
        {
          "lat": "-31.95985876647692",
          "lng": "115.85873186588289",
          "name": "Lucky Shag Waterfront Bar",
          "artist": 0,
          "artist_url": 0,
          "address": 0,
          "suburb": 0,
          "location_url": 0,
          "location_image_url": 0,
          "start": "5:30PM",
          "date_formatted": "June 5, 2022",
          "date": "2022-06-05"
        },
        {
          "lat": "-31.980014150813556",
          "lng": "115.91093301773073",
          "name": "Carlisle Hotel",
          "artist": 0,
          "artist_url": 0,
          "address": 174,
          "suburb": 0,
          "location_url": 0,
          "location_image_url": 0,
          "start": "5:30PM",
          "date_formatted": "June 5, 2022",
          "date": "2022-06-05"
        },
        {
          "lat": "-31.9484542",
          "lng": "115.8580225",
          "name": "Johnny Fox's",
          "artist": 0,
          "artist_url": 0,
          "address": 205,
          "suburb": 0,
          "location_url": 0,
          "location_image_url": 0,
          "start": "6:00PM",
          "date_formatted": "June 5, 2022",
          "date": "2022-06-05"
        },
        {
          "lat": "-27.987172894211525",
          "lng": "119.29695367813112",
          "name": "Old Town Hall, Sandstone",
          "artist": 0,
          "artist_url": 0,
          "address": 0,
          "suburb": 0,
          "location_url": 0,
          "location_image_url": 0,
          "start": "6:00PM",
          "date_formatted": "June 5, 2022",
          "date": "2022-06-05"
        },
        {
          "lat": "-32.04395053011476",
          "lng": "115.76343834400178",
          "name": "Duke of George",
          "artist": 0,
          "artist_url": 0,
          "address": 135,
          "suburb": 0,
          "location_url": 0,
          "location_image_url": 0,
          "start": "6:00PM",
          "date_formatted": "June 5, 2022",
          "date": "2022-06-05"
        },
        {
          "lat": "-31.9466817",
          "lng": "115.8643082",
          "name": "Ellington Jazz Club",
          "artist": 0,
          "artist_url": 0,
          "address": 191,
          "suburb": 0,
          "location_url": 0,
          "location_image_url": 0,
          "start": "6:00PM",
          "date_formatted": "June 5, 2022",
          "date": "2022-06-05"
        },
        {
          "lat": "-32.0357504",
          "lng": "115.7533118",
          "name": "Mojo's Bar",
          "artist": 0,
          "artist_url": 0,
          "address": 237,
          "suburb": 0,
          "location_url": 0,
          "location_image_url": 0,
          "start": "6:00PM",
          "date_formatted": "June 5, 2022",
          "date": "2022-06-05"
        },
        {
          "lat": "-31.9488433",
          "lng": "115.8562019",
          "name": "Mustang Bar",
          "artist": 0,
          "artist_url": 0,
          "address": 46,
          "suburb": 0,
          "location_url": 0,
          "location_image_url": 0,
          "start": "6:00PM",
          "date_formatted": "June 5, 2022",
          "date": "2022-06-05"
        },
        {
          "lat": "-32.040946",
          "lng": "115.7659385",
          "name": "Tradewinds Hotel",
          "artist": 0,
          "artist_url": 0,
          "address": 59,
          "suburb": 0,
          "location_url": 0,
          "location_image_url": 0,
          "start": "6:00PM",
          "date_formatted": "June 5, 2022",
          "date": "2022-06-05"
        },
        {
          "lat": "-31.940613960090893",
          "lng": "115.81004977226259",
          "name": "Wembley Hotel",
          "artist": 0,
          "artist_url": 0,
          "address": 344,
          "suburb": 0,
          "location_url": 0,
          "location_image_url": 0,
          "start": "6:00PM",
          "date_formatted": "June 5, 2022",
          "date": "2022-06-05"
        },
        {
          "lat": "-31.875771929212647",
          "lng": "115.8396077156067",
          "name": "Nollamara Bowling Club",
          "artist": 0,
          "artist_url": 0,
          "address": 11,
          "suburb": 0,
          "location_url": 0,
          "location_image_url": 0,
          "start": "6:00PM",
          "date_formatted": "June 5, 2022",
          "date": "2022-06-05"
        },
        {
          "lat": "-33.6176955",
          "lng": "115.1006546",
          "name": "Clancy's Fish Pub Dunsborough",
          "artist": 0,
          "artist_url": 0,
          "address": 1710,
          "suburb": 0,
          "location_url": 0,
          "location_image_url": 0,
          "start": "6:00PM",
          "date_formatted": "June 5, 2022",
          "date": "2022-06-05"
        },
        {
          "lat": "-31.938881820835938",
          "lng": "115.86949020624162",
          "name": "Beaufort Tavern",
          "artist": 0,
          "artist_url": 0,
          "address": 484,
          "suburb": 0,
          "location_url": 0,
          "location_image_url": 0,
          "start": "6:00PM",
          "date_formatted": "June 5, 2022",
          "date": "2022-06-05"
        },
        {
          "lat": "-31.9288536",
          "lng": "115.8769727",
          "name": "Astor Theatre",
          "artist": 0,
          "artist_url": 0,
          "address": 659,
          "suburb": 0,
          "location_url": 0,
          "location_image_url": 0,
          "start": "6:30PM",
          "date_formatted": "June 5, 2022",
          "date": "2022-06-05"
        },
        {
          "lat": "-31.945693650000003",
          "lng": "115.86989915831407",
          "name": "HBF Park",
          "artist": 0,
          "artist_url": 0,
          "address": 310,
          "suburb": 0,
          "location_url": 0,
          "location_image_url": 0,
          "start": "7:00PM",
          "date_formatted": "June 5, 2022",
          "date": "2022-06-05"
        },
        {
          "lat": "-31.93094505",
          "lng": "115.858864421857",
          "name": "Rosemount Hotel",
          "artist": 0,
          "artist_url": 0,
          "address": 459,
          "suburb": 0,
          "location_url": 0,
          "location_image_url": 0,
          "start": "7:00PM",
          "date_formatted": "June 5, 2022",
          "date": "2022-06-05"
        },
        {
          "lat": "-31.9612146",
          "lng": "115.8940973",
          "name": "Pearl Room, Crown",
          "artist": 0,
          "artist_url": 0,
          "address": 0,
          "suburb": 0,
          "location_url": 0,
          "location_image_url": 0,
          "start": "7:00PM",
          "date_formatted": "June 5, 2022",
          "date": "2022-06-05"
        },
        {
          "lat": "-31.947428393445065",
          "lng": "115.85486948490144",
          "name": "Lynott's Lounge",
          "artist": 0,
          "artist_url": 0,
          "address": 205,
          "suburb": 0,
          "location_url": 0,
          "location_image_url": 0,
          "start": "7:30PM",
          "date_formatted": "June 5, 2022",
          "date": "2022-06-05"
        },
        {
          "lat": "-35.02374537124437",
          "lng": "117.88315057754518",
          "name": "Albany Town Hall",
          "artist": 0,
          "artist_url": 0,
          "address": 217,
          "suburb": 0,
          "location_url": 0,
          "location_image_url": 0,
          "start": "7:30PM",
          "date_formatted": "June 5, 2022",
          "date": "2022-06-05"
        },
        {
          "lat": "-17.9528838",
          "lng": "122.2436965",
          "name": "Roebuck Bay Hotel (The Roey)",
          "artist": 0,
          "artist_url": 0,
          "address": 33,
          "suburb": 0,
          "location_url": 0,
          "location_image_url": 0,
          "start": "8:00PM",
          "date_formatted": "June 5, 2022",
          "date": "2022-06-05"
        },
        {
          "lat": "-31.947432945335844",
          "lng": "115.85691332817079",
          "name": "Convenients",
          "artist": 0,
          "artist_url": 0,
          "address": 35,
          "suburb": 0,
          "location_url": 0,
          "location_image_url": 0,
          "start": "8:00PM",
          "date_formatted": "June 5, 2022",
          "date": "2022-06-05"
        },
        {
          "lat": "-31.9606404",
          "lng": "115.8920311",
          "name": "Riverside Room, Crown",
          "artist": 0,
          "artist_url": 0,
          "address": 0,
          "suburb": 0,
          "location_url": 0,
          "location_image_url": 0,
          "start": "8:00PM",
          "date_formatted": "June 5, 2022",
          "date": "2022-06-05"
        },
        {
          "lat": "-31.9484542",
          "lng": "115.8580225",
          "name": "An Sibin",
          "artist": 0,
          "artist_url": 0,
          "address": 147,
          "suburb": 0,
          "location_url": 0,
          "location_image_url": 0,
          "start": "8:30PM",
          "date_formatted": "June 5, 2022",
          "date": "2022-06-05"
        },
        {
          "lat": "-31.8936848",
          "lng": "115.7548686",
          "name": "Galway Hooker",
          "artist": 0,
          "artist_url": 0,
          "address": 148,
          "suburb": 0,
          "location_url": 0,
          "location_image_url": 0,
          "start": "8:30PM",
          "date_formatted": "June 5, 2022",
          "date": "2022-06-05"
        },
        {
          "lat": "-31.9486357",
          "lng": "115.8593999",
          "name": "Universal Bar",
          "artist": 0,
          "artist_url": 0,
          "address": 221,
          "suburb": 0,
          "location_url": 0,
          "location_image_url": 0,
          "start": "9:30PM",
          "date_formatted": "June 5, 2022",
          "date": "2022-06-05"
        },
        {
          "lat": "-31.9612146",
          "lng": "115.8940973",
          "name": "Pearl Room, Crown",
          "artist": 0,
          "artist_url": 0,
          "address": 0,
          "suburb": 0,
          "location_url": 0,
          "location_image_url": 0,
          "start": "10:00PM",
          "date_formatted": "June 5, 2022",
          "date": "2022-06-05"
        },
        {
          "lat": "-31.9488433",
          "lng": "115.8562019",
          "name": "Mustang Bar",
          "artist": 0,
          "artist_url": 0,
          "address": 46,
          "suburb": 0,
          "location_url": 0,
          "location_image_url": 0,
          "start": "10:00PM",
          "date_formatted": "June 5, 2022",
          "date": "2022-06-05"
        }
      ]
    },
    {
      "datestring": "Mon Jun 6",
      "datetime": "2022-06-06",
      "gigs": [
        {
          "lat": "-31.9606404",
          "lng": "115.8920311",
          "name": "Riverside Room, Crown",
          "artist": 0,
          "artist_url": 0,
          "address": 0,
          "suburb": 0,
          "location_url": 0,
          "location_image_url": 0,
          "start": "12:00PM",
          "date_formatted": "June 6, 2022",
          "date": "2022-06-06"
        },
        {
          "lat": "-31.962782",
          "lng": "115.891729",
          "name": "Burswood Park",
          "artist": 0,
          "artist_url": 0,
          "address": 0,
          "suburb": 0,
          "location_url": 0,
          "location_image_url": 0,
          "start": "12:00PM",
          "date_formatted": "June 6, 2022",
          "date": "2022-06-06"
        },
        {
          "lat": "-31.878268275048896",
          "lng": "116.13597035408021",
          "name": "Parkerville Tavern",
          "artist": 0,
          "artist_url": 0,
          "address": 6,
          "suburb": 0,
          "location_url": 0,
          "location_image_url": 0,
          "start": "12:00PM",
          "date_formatted": "June 6, 2022",
          "date": "2022-06-06"
        },
        {
          "lat": "-32.0444552",
          "lng": "116.1359137",
          "name": "Core Cider",
          "artist": 0,
          "artist_url": 0,
          "address": 35,
          "suburb": 0,
          "location_url": 0,
          "location_image_url": 0,
          "start": "12:00PM",
          "date_formatted": "June 6, 2022",
          "date": "2022-06-06"
        },
        {
          "lat": "-32.206374048667136",
          "lng": "116.01502418518068",
          "name": "Byford & Districts Country Club",
          "artist": 0,
          "artist_url": 0,
          "address": 88,
          "suburb": 0,
          "location_url": 0,
          "location_image_url": 0,
          "start": "1:00PM",
          "date_formatted": "June 6, 2022",
          "date": "2022-06-06"
        },
        {
          "lat": "-31.851014357886744",
          "lng": "115.87965846061708",
          "name": "Malaga Markets",
          "artist": 0,
          "artist_url": 0,
          "address": 7,
          "suburb": 0,
          "location_url": 0,
          "location_image_url": 0,
          "start": "1:00PM",
          "date_formatted": "June 6, 2022",
          "date": "2022-06-06"
        },
        {
          "lat": "-31.671188647342674",
          "lng": "116.03078484535217",
          "name": "Chequers (Red Roof) Hotel",
          "artist": 0,
          "artist_url": 0,
          "address": 2543,
          "suburb": 0,
          "location_url": 0,
          "location_image_url": 0,
          "start": "2:00PM",
          "date_formatted": "June 6, 2022",
          "date": "2022-06-06"
        },
        {
          "lat": "-31.9612146",
          "lng": "115.8940973",
          "name": "Pearl Room, Crown",
          "artist": 0,
          "artist_url": 0,
          "address": 0,
          "suburb": 0,
          "location_url": 0,
          "location_image_url": 0,
          "start": "2:00PM",
          "date_formatted": "June 6, 2022",
          "date": "2022-06-06"
        },
        {
          "lat": "-31.903565013938323",
          "lng": "116.16583943367004",
          "name": "The Mundaring Hotel",
          "artist": 0,
          "artist_url": 0,
          "address": 0,
          "suburb": 0,
          "location_url": 0,
          "location_image_url": 0,
          "start": "2:00PM",
          "date_formatted": "June 6, 2022",
          "date": "2022-06-06"
        },
        {
          "lat": "-31.89954368878502",
          "lng": "115.96860051155092",
          "name": "Guildford Hotel",
          "artist": 0,
          "artist_url": 0,
          "address": 159,
          "suburb": 0,
          "location_url": 0,
          "location_image_url": 0,
          "start": "2:00PM",
          "date_formatted": "June 6, 2022",
          "date": "2022-06-06"
        },
        {
          "lat": "-32.528203430052514",
          "lng": "115.71754574775697",
          "name": "Pen, The (Peninsular)",
          "artist": 0,
          "artist_url": 0,
          "address": 1,
          "suburb": 0,
          "location_url": 0,
          "location_image_url": 0,
          "start": "2:00PM",
          "date_formatted": "June 6, 2022",
          "date": "2022-06-06"
        }
      ]
    }
  ]
}